[
    {
        "label": "Canada",
        "lat": 56.1304,
        "lng": -106.3468,
        "size": 0.2     
    },
    {
        "label": "USA",
        "lat": 37.0902,
        "lng": -95.7129,
        "size": 0.2     
    },
    {
        "label": "Brazil",
        "lat": -14.2350,
        "lng": -51.9253,
        "size": 0.2
    },
    {
        "label": "Spain",
        "lat": 40.4637,
        "lng": -3.7492,
        "size": 0.2
    },
    {
        "label": "Poland",
        "lat": 51.9194,
        "lng": 19.1451,
        "size": 0.2
    },
    {
        "label": "Ukraine",
        "lat": 48.3794,
        "lng": 31.1656,
        "size": 0.2
    },
    {
        "label": "Moldova",
        "lat": 47.4116,
        "lng": 28.3699,
        "size": 0.2
    },
    {
        "label": "Australia",
        "lat": -25.2744,
        "lng": 133.7751,
        "size": 0.2
    },
    {
        "label": "Bulgaria",
        "lat": 42.7339,
        "lng": 25.4858,
        "size": 0.2
    },
    {
        "label": "Colombia",
        "lat": 4.5709,
        "lng": -74.2973,
        "size": 0.2
    },
    {
        "label": "Chile",
        "lat": -35.6751,
        "lng": -71.5430,
        "size": 0.2
    },
    {
        "label": "Greece",
        "lat": 39.0742,
        "lng": 21.8243,
        "size": 0.2
    },
    {
        "label": "Dubai",
        "lat": 25.2048,
        "lng": 55.2708,
        "size": 0.2
    },
    {
        "label": "Egypt",
        "lat": 26.8206,
        "lng": 30.8025,
        "size": 0.2
    },
    {
        "label": "Lebanon",
        "lat": 33.8547,
        "lng": 35.8623,
        "size": 0.2
    },
    {
        "label": "Nigeria",
        "lat": 9.0820,
        "lng": 8.6753,
        "size": 0.2
    },
    {
        "label": "Uzbekistan",
        "lat": 41.3775,
        "lng": 64.5853,
        "size": 0.2
    },
    {
        "label": "Taiwan",
        "lat": 23.6978,
        "lng": 120.9605,
        "size": 0.2
    },
    {
        "label": "Libya",
        "lat": 26.3351,
        "lng": 17.2283,
        "size": 0.2
    },
    {
        "label": "China",
        "lat": 35.8617,
        "lng": 104.1954,
        "size": 0.2
    },
    {
        "label": "Russia",
        "lat": 61.5240,
        "lng": 105.3188,
        "size": 0.2
    }
]