[
    {
        "_id": "01",
        "label": "Canada (CA)",
        "lat": 56.1304,
        "lng": -106.3468,
        "size": 0.2     
    },
    {
        "_id": "02",
        "label": "United States of America (US)",
        "lat": 37.0902,
        "lng": -95.7129,
        "size": 0.2     
    },
    {
        "_id": "03",
        "label": "Brazil (BR)",
        "lat": -14.2350,
        "lng": -51.9253,
        "size": 0.2
    },
    {
        "_id": "04",
        "label": "Spain (ES)",
        "lat": 40.4637,
        "lng": -3.7492,
        "size": 0.2
    },
    {
        "_id": "05",
        "label": "Poland (PL)",
        "lat": 51.9194,
        "lng": 19.1451,
        "size": 0.2
    },
    {
        "_id": "06",
        "label": "Ukraine (UA)",
        "lat": 48.3794,
        "lng": 31.1656,
        "size": 0.2
    },
    {
        "_id": "07",
        "label": "Moldova (MD)",
        "lat": 47.4116,
        "lng": 28.3699,
        "size": 0.2
    },
    {
        "_id": "08",
        "label": "Australia (AU)",
        "lat": -25.2744,
        "lng": 133.7751,
        "size": 0.2
    },
    {
        "_id": "09",
        "label": "Bulgaria (BG)",
        "lat": 42.7339,
        "lng": 25.4858,
        "size": 0.2
    },
    {
        "_id": "10",
        "label": "Colombia (CO)",
        "lat": 4.5709,
        "lng": -74.2973,
        "size": 0.2
    },
    {
        "_id": "11",
        "label": "Chile (CL)",
        "lat": -35.6751,
        "lng": -71.5430,
        "size": 0.2
    },
    {
        "_id": "12",
        "label": "Greece (GR)",
        "lat": 39.0742,
        "lng": 21.8243,
        "size": 0.2
    },
    {
        "_id": "13",
        "label": "Dubai",
        "lat": 25.2048,
        "lng": 55.2708,
        "size": 0.2
    },
    {
        "_id": "14",
        "label": "Egypt (EG)",
        "lat": 26.8206,
        "lng": 30.8025,
        "size": 0.2
    },
    {
        "_id": "15",
        "label": "Lebanon (LB)",
        "lat": 33.8547,
        "lng": 35.8623,
        "size": 0.2
    },
    {
        "_id": "16",
        "label": "Nigeria (NG)",
        "lat": 9.0820,
        "lng": 8.6753,
        "size": 0.2
    },
    {
        "_id": "17",
        "label": "Uzbekistan (UZ)",
        "lat": 41.3775,
        "lng": 64.5853,
        "size": 0.2
    },
    {
        "_id": "18",
        "label": "Taiwan (TW)",
        "lat": 23.6978,
        "lng": 120.9605,
        "size": 0.2
    },
    {
        "_id": "19",
        "label": "Libya (LY)",
        "lat": 26.3351,
        "lng": 17.2283,
        "size": 0.2
    },
    {
        "_id": "20",
        "label": "China (CN)",
        "lat": 35.8617,
        "lng": 104.1954,
        "size": 0.2
    },
    {
        "_id": "21",
        "label": "Russia (RU)",
        "lat": 61.5240,
        "lng": 105.3188,
        "size": 0.2
    },
    {
        "_id": "22",
        "label": "Azerbaijan (AZ)",
        "lat": 40.1431,
        "lng": 47.5769,
        "size": 0.2
    },
    {
        "_id": "23",
        "label": "Belarus (BY)",
        "lat": 53.7098,
        "lng": 27.9534,
        "size": 0.2
    },
    {
        "_id": "24",
        "label": "Kazakhstan (KZ)",
        "lat": 48.0196,
        "lng": 66.9237,
        "size": 0.2
    },
    {
        "_id": "25",
        "label": "Kyrgyzstan (KG)",
        "lat": 41.2044,
        "lng": 74.7661,
        "size": 0.2
    },
    {
        "_id": "26",
        "label": "Tajikistan (TJ)",
        "lat": 38.8610,
        "lng": 71.2761,
        "size": 0.2
    },
    {
        "_id": "27",
        "label": "Turkmenistan (TM)",
        "lat": 38.9697,
        "lng": 59.5133,
        "size": 0.2
    }
]